$GPRMC,075333.000,A,3736.692871,N,12659.781250,E,0.685240
$GPRMC,075335.000,A,3736.616455,N,12659.812500,E,0.463000
$GPRMC,075336.000,A,3736.687256,N,12659.790039,E,0.796360
$GPRMC,075338.000,A,3736.712158,N,12659.775391,E,0.000000
$GPRMC,075340.000,A,3736.653809,N,12659.800781,E,0.166680
$GPRMC,075341.000,A,3736.628418,N,12659.805664,E,1.333440
$GPRMC,075343.000,A,3736.578369,N,12659.826172,E,1.296400
$GPRMC,075345.000,A,3736.684570,N,12659.784180,E,0.000000
$GPRMC,075346.000,A,3736.684570,N,12659.784180,E,0.000000
$GPRMC,075348.000,A,3736.627686,N,12659.804688,E,0.425960
$GPRMC,075350.000,A,3736.647705,N,12659.800781,E,0.018520
$GPRMC,075351.000,A,3736.647705,N,12659.800781,E,0.000000
$GPRMC,075353.000,A,3736.647705,N,12659.800781,E,0.000000
$GPRMC,075355.000,A,3736.634033,N,12659.806641,E,1.148240
$GPRMC,075356.000,A,3736.634033,N,12659.806641,E,0.000000
$GPRMC,075358.000,A,3736.634033,N,12659.806641,E,0.000000
$GPRMC,075400.000,A,3736.634033,N,12659.806641,E,0.000000
$GPRMC,075401.000,A,3736.634033,N,12659.806641,E,0.000000
$GPRMC,075403.000,A,3736.634033,N,12659.806641,E,0.000000
$GPRMC,075404.000,A,3736.634033,N,12659.806641,E,0.000000
$GPRMC,075405.000,A,3736.634033,N,12659.806641,E,0.000000
$GPRMC,075408.000,A,3736.634033,N,12659.806641,E,0.000000
$GPRMC,075409.000,A,3736.634033,N,12659.806641,E,0.000000
$GPRMC,075410.000,A,3736.634033,N,12659.806641,E,0.000000
$GPRMC,075412.000,A,3736.634033,N,12659.806641,E,0.000000
$GPRMC,075413.000,A,3736.634033,N,12659.806641,E,0.000000
$GPRMC,075414.000,A,3736.634033,N,12659.806641,E,0.000000
$GPRMC,075416.000,A,3736.634033,N,12659.806641,E,0.000000
$GPRMC,075417.000,A,3736.634033,N,12659.806641,E,0.000000
$GPRMC,075420.000,A,3736.634033,N,12659.806641,E,0.000000
$GPRMC,075421.000,A,3736.634033,N,12659.806641,E,0.000000
$GPRMC,075423.000,A,3736.634033,N,12659.806641,E,0.000000
$GPRMC,075424.000,A,3736.634033,N,12659.806641,E,0.000000
$GPRMC,075425.000,A,3736.634033,N,12659.806641,E,0.000000
$GPRMC,075427.000,A,3736.634033,N,12659.806641,E,0.000000
$GPRMC,075428.000,A,3736.634033,N,12659.806641,E,0.000000
$GPRMC,075429.000,A,3736.634033,N,12659.806641,E,0.000000
$GPRMC,075431.000,A,3736.634033,N,12659.806641,E,0.000000
$GPRMC,075432.000,A,3736.634033,N,12659.806641,E,0.000000
$GPRMC,075436.000,A,3736.634033,N,12659.806641,E,0.000000
$GPRMC,075437.000,A,3736.634033,N,12659.806641,E,0.000000
$GPRMC,075440.000,A,3736.634033,N,12659.806641,E,0.000000
$GPRMC,075441.000,A,3736.634033,N,12659.806641,E,0.000000
$GPRMC,075445.000,A,3736.634033,N,12659.806641,E,0.000000
$GPRMC,075446.000,A,3736.634033,N,12659.806641,E,0.000000
$GPRMC,075448.000,A,3736.634033,N,12659.806641,E,0.000000
$GPRMC,075449.000,A,3736.634033,N,12659.806641,E,0.000000
$GPRMC,075450.000,A,3736.634033,N,12659.806641,E,0.000000
$GPRMC,075453.000,A,3736.634033,N,12659.806641,E,0.000000
$GPRMC,075454.000,A,3736.634033,N,12659.806641,E,0.000000
$GPRMC,075455.000,A,3736.634033,N,12659.806641,E,0.000000
$GPRMC,075457.000,A,3736.634033,N,12659.806641,E,0.000000
$GPRMC,075458.000,A,3736.634033,N,12659.806641,E,0.000000
$GPRMC,075459.000,A,3736.634033,N,12659.806641,E,0.000000
$GPRMC,075500.000,A,3736.634033,N,12659.806641,E,0.000000
$GPRMC,075502.000,A,3736.634033,N,12659.806641,E,0.000000
$GPRMC,075503.000,A,3736.634033,N,12659.806641,E,0.000000
$GPRMC,075504.000,A,3736.634033,N,12659.806641,E,0.000000
$GPRMC,075507.000,A,3736.634033,N,12659.806641,E,0.000000
$GPRMC,075508.000,A,3736.634033,N,12659.806641,E,0.000000
$GPRMC,075509.000,A,3736.634033,N,12659.806641,E,0.000000
$GPRMC,075511.000,A,3736.634033,N,12659.806641,E,0.000000
$GPRMC,075512.000,A,3736.634033,N,12659.806641,E,0.000000
$GPRMC,075516.000,A,3736.634033,N,12659.806641,E,0.000000
$GPRMC,075517.000,A,3736.634033,N,12659.806641,E,0.000000
$GPRMC,075520.000,A,3736.634033,N,12659.806641,E,0.000000
$GPRMC,075521.000,A,3736.634033,N,12659.806641,E,0.000000
$GPRMC,075525.000,A,3736.634033,N,12659.806641,E,0.000000
$GPRMC,075526.000,A,3736.634033,N,12659.806641,E,0.000000
$GPRMC,075528.000,A,3736.634033,N,12659.806641,E,0.000000
$GPRMC,075529.000,A,3736.634033,N,12659.806641,E,0.000000
$GPRMC,075530.000,A,3736.634033,N,12659.806641,E,0.000000
$GPRMC,075531.000,A,3736.634033,N,12659.806641,E,0.000000
$GPRMC,075533.000,A,3736.634033,N,12659.806641,E,0.000000
$GPRMC,075534.000,A,3736.634033,N,12659.806641,E,0.000000
$GPRMC,075535.000,A,3736.634033,N,12659.806641,E,0.000000
$GPRMC,075537.000,A,3736.634033,N,12659.806641,E,0.000000
$GPRMC,075538.000,A,3736.634033,N,12659.806641,E,0.000000
$GPRMC,075539.000,A,3736.634033,N,12659.806641,E,0.000000
$GPRMC,075540.000,A,3736.634033,N,12659.806641,E,0.000000
$GPRMC,075542.000,A,3736.634033,N,12659.806641,E,0.000000
$GPRMC,075543.000,A,3736.634033,N,12659.806641,E,0.000000
$GPRMC,075544.000,A,3736.634033,N,12659.806641,E,0.000000
$GPRMC,075546.000,A,3736.634033,N,12659.806641,E,0.000000
$GPRMC,075547.000,A,3736.634033,N,12659.806641,E,0.000000
$GPRMC,075551.000,A,3736.634033,N,12659.806641,E,0.000000
$GPRMC,075552.000,A,3736.634033,N,12659.806641,E,0.000000
$GPRMC,075555.000,A,3736.634033,N,12659.806641,E,0.000000
$GPRMC,075556.000,A,3736.634033,N,12659.806641,E,0.000000
$GPRMC,075557.000,A,3736.634033,N,12659.806641,E,0.000000
$GPRMC,075600.000,A,3736.634033,N,12659.806641,E,0.000000
$GPRMC,075601.000,A,3736.634033,N,12659.806641,E,0.000000
$GPRMC,075605.000,A,3736.634033,N,12659.806641,E,0.000000
$GPRMC,075606.000,A,3736.634033,N,12659.806641,E,0.000000
$GPRMC,075608.000,A,3736.634033,N,12659.806641,E,0.000000
$GPRMC,075610.000,A,3736.634033,N,12659.806641,E,0.000000
$GPRMC,075611.000,A,3736.634033,N,12659.806641,E,0.000000
$GPRMC,075615.000,A,3736.634033,N,12659.806641,E,0.000000
$GPRMC,075616.000,A,3736.634033,N,12659.806641,E,0.000000
$GPRMC,075618.000,A,3736.634033,N,12659.806641,E,0.000000
$GPRMC,075619.000,A,3736.634033,N,12659.806641,E,0.000000
$GPRMC,075620.000,A,3736.634033,N,12659.806641,E,0.000000
$GPRMC,075623.000,A,3736.634033,N,12659.806641,E,0.000000
$GPRMC,075624.000,A,3736.634033,N,12659.806641,E,0.000000
$GPRMC,075625.000,A,3736.634033,N,12659.806641,E,0.000000
$GPRMC,075626.000,A,3736.634033,N,12659.806641,E,0.000000
$GPRMC,075628.000,A,3736.634033,N,12659.806641,E,0.000000
$GPRMC,075629.000,A,3736.634033,N,12659.806641,E,0.000000
$GPRMC,075630.000,A,3736.634033,N,12659.806641,E,0.000000
$GPRMC,075633.000,A,3736.634033,N,12659.806641,E,0.000000
$GPRMC,075634.000,A,3736.634033,N,12659.806641,E,0.000000
$GPRMC,075635.000,A,3736.634033,N,12659.806641,E,0.000000
$GPRMC,075638.000,A,3736.634033,N,12659.806641,E,0.000000
$GPRMC,075639.000,A,3736.634033,N,12659.806641,E,0.000000
$GPRMC,075640.000,A,3736.634033,N,12659.806641,E,0.000000
$GPRMC,075642.000,A,3736.634033,N,12659.806641,E,0.000000
$GPRMC,075643.000,A,3736.634033,N,12659.806641,E,0.000000
$GPRMC,075644.000,A,3736.634033,N,12659.806641,E,0.000000
$GPRMC,075645.000,A,3736.634033,N,12659.806641,E,0.000000
$GPRMC,075647.000,A,3736.634033,N,12659.806641,E,0.000000
$GPRMC,075648.000,A,3736.634033,N,12659.806641,E,0.000000
$GPRMC,075649.000,A,3736.634033,N,12659.806641,E,0.000000
$GPRMC,075650.000,A,3736.634033,N,12659.806641,E,0.000000
$GPRMC,075652.000,A,3736.634033,N,12659.806641,E,0.000000
$GPRMC,075653.000,A,3736.634033,N,12659.806641,E,0.000000
$GPRMC,075654.000,A,3736.634033,N,12659.806641,E,0.000000
$GPRMC,075656.000,A,3736.634033,N,12659.806641,E,0.000000
$GPRMC,075657.000,A,3736.634033,N,12659.806641,E,0.000000
$GPRMC,075700.000,A,3736.634033,N,12659.806641,E,0.000000
$GPRMC,075701.000,A,3736.634033,N,12659.806641,E,0.000000
$GPRMC,075703.000,A,3736.634033,N,12659.806641,E,0.000000
$GPRMC,075704.000,A,3736.634033,N,12659.806641,E,0.000000
$GPRMC,075705.000,A,3736.634033,N,12659.806641,E,0.000000
$GPRMC,075707.000,A,3736.634033,N,12659.806641,E,0.000000
$GPRMC,075708.000,A,3736.634033,N,12659.806641,E,0.000000
$GPRMC,075709.000,A,3736.634033,N,12659.806641,E,0.000000
$GPRMC,075712.000,A,3736.634033,N,12659.806641,E,0.000000
$GPRMC,075713.000,A,3736.634033,N,12659.806641,E,0.000000
$GPRMC,075714.000,A,3736.634033,N,12659.806641,E,0.000000
$GPRMC,075716.000,A,3736.634033,N,12659.806641,E,0.000000
$GPRMC,075717.000,A,3736.634033,N,12659.806641,E,0.000000
$GPRMC,075720.000,A,3736.634033,N,12659.806641,E,0.000000
$GPRMC,075721.000,A,3736.634033,N,12659.806641,E,0.000000
$GPRMC,075723.000,A,3736.634033,N,12659.806641,E,0.000000
$GPRMC,075724.000,A,3736.634033,N,12659.806641,E,0.000000
$GPRMC,075725.000,A,3736.634033,N,12659.806641,E,0.000000
$GPRMC,075727.000,A,3736.634033,N,12659.806641,E,0.000000
$GPRMC,075728.000,A,3736.634033,N,12659.806641,E,0.000000
$GPRMC,075729.000,A,3736.634033,N,12659.806641,E,0.000000
$GPRMC,075731.000,A,3736.634033,N,12659.806641,E,0.000000
$GPRMC,075732.000,A,3736.634033,N,12659.806641,E,0.000000
$GPRMC,075734.000,A,3736.634033,N,12659.806641,E,0.000000
$GPRMC,075736.000,A,3736.634033,N,12659.806641,E,0.000000
$GPRMC,075737.000,A,3736.634033,N,12659.806641,E,0.000000
$GPRMC,075740.000,A,3736.634033,N,12659.806641,E,0.000000
$GPRMC,075741.000,A,3736.634033,N,12659.806641,E,0.000000
$GPRMC,075742.000,A,3736.634033,N,12659.806641,E,0.000000
$GPRMC,075745.000,A,3736.634033,N,12659.806641,E,0.000000
$GPRMC,075746.000,A,3736.634033,N,12659.806641,E,0.000000
$GPRMC,075750.000,A,3736.634033,N,12659.806641,E,0.000000
$GPRMC,075751.000,A,3736.634033,N,12659.806641,E,0.000000
$GPRMC,075755.000,A,3736.634033,N,12659.806641,E,0.000000
$GPRMC,075756.000,A,3736.634033,N,12659.806641,E,0.000000
$GPRMC,075758.000,A,3736.634033,N,12659.806641,E,0.000000
$GPRMC,075759.000,A,3736.634033,N,12659.806641,E,0.000000
$GPRMC,075800.000,A,3736.634033,N,12659.806641,E,0.000000
$GPRMC,075801.000,A,3736.634033,N,12659.806641,E,0.000000
$GPRMC,075803.000,A,3736.634033,N,12659.806641,E,0.000000
$GPRMC,075804.000,A,3736.634033,N,12659.806641,E,0.000000
$GPRMC,075805.000,A,3736.634033,N,12659.806641,E,0.000000
$GPRMC,075808.000,A,3736.634033,N,12659.806641,E,0.000000
$GPRMC,075809.000,A,3736.634033,N,12659.806641,E,0.000000
$GPRMC,075810.000,A,3736.634033,N,12659.806641,E,0.000000
$GPRMC,075812.000,A,3736.634033,N,12659.806641,E,0.000000
$GPRMC,075813.000,A,3736.634033,N,12659.806641,E,0.000000
$GPRMC,075814.000,A,3736.634033,N,12659.806641,E,0.000000
$GPRMC,075815.000,A,3736.634033,N,12659.806641,E,0.000000
$GPRMC,075817.000,A,3736.634033,N,12659.806641,E,0.000000
$GPRMC,075818.000,A,3736.634033,N,12659.806641,E,0.000000
$GPRMC,075819.000,A,3736.634033,N,12659.806641,E,0.000000
$GPRMC,075822.000,A,3736.634033,N,12659.806641,E,0.000000
$GPRMC,075823.000,A,3736.634033,N,12659.806641,E,0.000000
$GPRMC,075824.000,A,3736.634033,N,12659.806641,E,0.000000
$GPRMC,075827.000,A,3736.634033,N,12659.806641,E,0.000000
$GPRMC,075828.000,A,3736.634033,N,12659.806641,E,0.000000
$GPRMC,075829.000,A,3736.634033,N,12659.806641,E,0.000000
$GPRMC,075831.000,A,3736.634033,N,12659.806641,E,0.000000
$GPRMC,075832.000,A,3736.634033,N,12659.806641,E,0.000000
$GPRMC,075833.000,A,3736.634033,N,12659.806641,E,0.000000
$GPRMC,075834.000,A,3736.634033,N,12659.806641,E,0.000000
$GPRMC,075836.000,A,3736.634033,N,12659.806641,E,0.000000
$GPRMC,075837.000,A,3736.634033,N,12659.806641,E,0.000000
$GPRMC,075841.000,A,3736.634033,N,12659.806641,E,0.000000
$GPRMC,075842.000,A,3736.634033,N,12659.806641,E,0.000000
$GPRMC,075844.000,A,3736.634033,N,12659.806641,E,0.000000
$GPRMC,075846.000,A,3736.634033,N,12659.806641,E,0.000000
$GPRMC,075847.000,A,3736.634033,N,12659.806641,E,0.000000
$GPRMC,075849.000,A,3736.634033,N,12659.806641,E,0.000000
$GPRMC,075851.000,A,3736.634033,N,12659.806641,E,0.000000
$GPRMC,075852.000,A,3736.634033,N,12659.806641,E,0.000000
$GPRMC,075854.000,A,3736.634033,N,12659.806641,E,0.000000
$GPRMC,075856.000,A,3736.634033,N,12659.806641,E,0.000000
$GPRMC,075857.000,A,3736.634033,N,12659.806641,E,0.000000
$GPRMC,075859.000,A,3736.634033,N,12659.806641,E,0.000000
$GPRMC,075900.000,A,3736.634033,N,12659.806641,E,0.000000
$GPRMC,075902.000,A,3736.634033,N,12659.806641,E,0.000000
$GPRMC,075903.000,A,3736.634033,N,12659.806641,E,0.000000
$GPRMC,075905.000,A,3736.634033,N,12659.806641,E,0.000000
$GPRMC,075906.000,A,3736.634033,N,12659.806641,E,0.000000
$GPRMC,075908.000,A,3736.634033,N,12659.806641,E,0.000000
$GPRMC,075910.000,A,3736.634033,N,12659.806641,E,0.000000
$GPRMC,075911.000,A,3736.634033,N,12659.806641,E,0.000000
$GPRMC,075913.000,A,3736.634033,N,12659.806641,E,0.000000
$GPRMC,075915.000,A,3736.634033,N,12659.806641,E,0.000000
$GPRMC,075916.000,A,3736.634033,N,12659.806641,E,0.000000
$GPRMC,075918.000,A,3736.634033,N,12659.806641,E,0.000000
$GPRMC,075920.000,A,3736.634033,N,12659.806641,E,0.000000
$GPRMC,075921.000,A,3736.634033,N,12659.806641,E,0.000000
$GPRMC,075923.000,A,3736.634033,N,12659.806641,E,0.000000
$GPRMC,075925.000,A,3736.634033,N,12659.806641,E,0.000000
$GPRMC,075926.000,A,3736.634033,N,12659.806641,E,0.000000
$GPRMC,075928.000,A,3736.634033,N,12659.806641,E,0.000000
$GPRMC,075930.000,A,3736.634033,N,12659.806641,E,0.000000
$GPRMC,075931.000,A,3736.634033,N,12659.806641,E,0.000000
$GPRMC,075933.000,A,3736.634033,N,12659.806641,E,0.000000
$GPRMC,075935.000,A,3736.634033,N,12659.806641,E,0.000000
$GPRMC,075936.000,A,3736.634033,N,12659.806641,E,0.000000
$GPRMC,075941.000,A,3736.768311,N,12659.757812,E,2.296480
$GPRMC,075943.000,A,3736.562012,N,12659.840820,E,1.000080
$GPRMC,075945.000,A,3736.691162,N,12659.780273,E,1.037120
$GPRMC,075946.000,A,3736.709961,N,12659.784180,E,0.370400
$GPRMC,075948.000,A,3736.706787,N,12659.775391,E,0.333360
$GPRMC,075950.000,A,3736.703125,N,12659.785156,E,0.000000
$GPRMC,075952.000,A,3736.843262,N,12659.715820,E,0.333360
$GPRMC,075953.000,A,3736.822021,N,12659.736328,E,0.500040
$GPRMC,075954.000,A,3736.822021,N,12659.736328,E,0.000000
$GPRMC,075955.000,A,3736.822021,N,12659.736328,E,0.000000
$GPRMC,075957.000,A,3736.822021,N,12659.736328,E,0.000000
$GPRMC,075958.000,A,3736.822021,N,12659.736328,E,0.000000
$GPRMC,075959.000,A,3736.822021,N,12659.736328,E,0.000000
$GPRMC,080001.000,A,3736.822021,N,12659.736328,E,0.000000
$GPRMC,080002.000,A,3736.822021,N,12659.736328,E,0.000000
$GPRMC,080006.000,A,3736.822021,N,12659.736328,E,0.000000
$GPRMC,080008.000,A,3736.822021,N,12659.736328,E,0.000000
$GPRMC,080010.000,A,3736.822021,N,12659.736328,E,0.000000
$GPRMC,080011.000,A,3736.822021,N,12659.736328,E,0.000000
$GPRMC,080013.000,A,3736.822021,N,12659.736328,E,0.000000
$GPRMC,080014.000,A,3736.822021,N,12659.736328,E,0.000000
$GPRMC,080015.000,A,3736.822021,N,12659.736328,E,0.000000
$GPRMC,080017.000,A,3736.822021,N,12659.736328,E,0.000000
$GPRMC,080018.000,A,3736.822021,N,12659.736328,E,0.000000
$GPRMC,080019.000,A,3736.822021,N,12659.736328,E,0.000000
$GPRMC,080021.000,A,3736.822021,N,12659.736328,E,0.000000
$GPRMC,080022.000,A,3736.822021,N,12659.736328,E,0.000000
$GPRMC,080024.000,A,3736.822021,N,12659.736328,E,0.000000
$GPRMC,080026.000,A,3736.822021,N,12659.736328,E,0.000000
$GPRMC,080027.000,A,3736.822021,N,12659.736328,E,0.000000
$GPRMC,080030.000,A,3736.822021,N,12659.736328,E,0.000000
$GPRMC,080031.000,A,3736.822021,N,12659.736328,E,0.000000
$GPRMC,080033.000,A,3736.822021,N,12659.736328,E,0.000000
$GPRMC,080035.000,A,3736.822021,N,12659.736328,E,0.000000
$GPRMC,080036.000,A,3736.822021,N,12659.736328,E,0.000000
$GPRMC,080038.000,A,3736.822021,N,12659.736328,E,0.000000
$GPRMC,080039.000,A,3736.822021,N,12659.736328,E,0.000000
$GPRMC,080040.000,A,3736.822021,N,12659.736328,E,0.000000
$GPRMC,080042.000,A,3736.683105,N,12659.791992,E,0.148160
$GPRMC,080043.000,A,3736.293701,N,12659.951172,E,1.129720
$GPRMC,080044.000,A,3736.455811,N,12659.890625,E,0.092600
$GPRMC,080045.000,A,3736.550293,N,12659.851562,E,0.351880
$GPRMC,080047.000,A,3737.231689,N,12659.570312,E,0.222240
$GPRMC,080048.000,A,3737.011719,N,12659.666992,E,0.500040
$GPRMC,080050.000,A,3736.878662,N,12659.712891,E,1.426040
$GPRMC,080053.000,A,3736.635254,N,12659.817383,E,2.148320
$GPRMC,080055.000,A,3736.853027,N,12659.726562,E,0.185200
$GPRMC,080057.000,A,3736.867188,N,12659.713867,E,0.037040
$GPRMC,080058.000,A,3736.542236,N,12659.856445,E,1.537160
$GPRMC,080059.000,A,3736.814453,N,12659.735352,E,0.518560
$GPRMC,080100.000,A,3736.934570,N,12659.692383,E,0.129640
$GPRMC,080102.000,A,3736.690186,N,12659.790039,E,0.648200
$GPRMC,080103.000,A,3737.731201,N,12659.351562,E,0.888960
$GPRMC,080104.000,A,3737.112793,N,12659.609375,E,2.926160
$GPRMC,080105.000,A,3737.065674,N,12659.630859,E,0.092600
$GPRMC,080107.000,A,3737.156006,N,12659.589844,E,1.000080
$GPRMC,080108.000,A,3736.807617,N,12659.748047,E,0.370400
$GPRMC,080110.000,A,3736.748535,N,12659.774414,E,0.944520
$GPRMC,080113.000,A,3736.748779,N,12659.774414,E,0.000000
$GPRMC,080115.000,A,3736.715576,N,12659.783203,E,0.370400
$GPRMC,080116.000,A,3736.820068,N,12659.728516,E,0.481520
$GPRMC,080118.000,A,3736.225342,N,12659.988281,E,0.314840
$GPRMC,080120.000,A,3736.205078,N,12659.997070,E,0.166680
$GPRMC,080121.000,A,3736.484619,N,12659.876953,E,0.629680
$GPRMC,080123.000,A,3737.392090,N,12659.499023,E,0.000000
$GPRMC,080124.000,A,3737.392090,N,12659.499023,E,0.000000
$GPRMC,080125.000,A,3737.392090,N,12659.499023,E,0.000000
$GPRMC,080127.000,A,3737.392090,N,12659.499023,E,0.000000
$GPRMC,080128.000,A,3737.392090,N,12659.499023,E,0.000000
$GPRMC,080129.000,A,3737.392090,N,12659.499023,E,0.000000
$GPRMC,080131.000,A,3737.392090,N,12659.499023,E,0.000000
$GPRMC,080132.000,A,3737.392090,N,12659.499023,E,0.000000
$GPRMC,080136.000,A,3737.392090,N,12659.499023,E,0.000000
$GPRMC,080138.000,A,3737.392090,N,12659.499023,E,0.000000
$GPRMC,080140.000,A,3737.392090,N,12659.499023,E,0.000000
$GPRMC,080141.000,A,3737.392090,N,12659.499023,E,0.000000
$GPRMC,080143.000,A,3737.392090,N,12659.499023,E,0.000000
$GPRMC,080144.000,A,3737.392090,N,12659.499023,E,0.000000
$GPRMC,080145.000,A,3737.392090,N,12659.499023,E,0.000000
$GPRMC,080147.000,A,3737.392090,N,12659.499023,E,0.000000
$GPRMC,080148.000,A,3737.392090,N,12659.499023,E,0.000000
$GPRMC,080149.000,A,3737.392090,N,12659.499023,E,0.000000
$GPRMC,080151.000,A,3737.392090,N,12659.499023,E,0.000000
$GPRMC,080152.000,A,3737.392090,N,12659.499023,E,0.000000
$GPRMC,080156.000,A,3737.392090,N,12659.499023,E,0.000000
$GPRMC,080158.000,A,3737.392090,N,12659.499023,E,0.000000
$GPRMC,080200.000,A,3737.392090,N,12659.499023,E,0.000000
$GPRMC,080201.000,A,3737.392090,N,12659.499023,E,0.000000
$GPRMC,080203.000,A,3737.392090,N,12659.499023,E,0.000000
$GPRMC,080204.000,A,3737.392090,N,12659.499023,E,0.000000
$GPRMC,080205.000,A,3737.392090,N,12659.499023,E,0.000000
$GPRMC,080207.000,A,3737.392090,N,12659.499023,E,0.000000
$GPRMC,080208.000,A,3737.392090,N,12659.499023,E,0.000000
$GPRMC,080209.000,A,3737.392090,N,12659.499023,E,0.000000
$GPRMC,080211.000,A,3737.392090,N,12659.499023,E,0.000000
$GPRMC,080212.000,A,3737.392090,N,12659.499023,E,0.000000
$GPRMC,080216.000,A,3737.392090,N,12659.499023,E,0.000000
$GPRMC,080218.000,A,3737.392090,N,12659.499023,E,0.000000
$GPRMC,080220.000,A,3737.392090,N,12659.499023,E,0.000000
$GPRMC,080221.000,A,3737.392090,N,12659.499023,E,0.000000
$GPRMC,080223.000,A,3737.392090,N,12659.499023,E,0.000000
$GPRMC,080224.000,A,3737.392090,N,12659.499023,E,0.000000
$GPRMC,080225.000,A,3737.392090,N,12659.499023,E,0.000000
$GPRMC,080227.000,A,3737.392090,N,12659.499023,E,0.000000
$GPRMC,080228.000,A,3737.392090,N,12659.499023,E,0.000000
$GPRMC,080229.000,A,3737.392090,N,12659.499023,E,0.000000
$GPRMC,080231.000,A,3737.392090,N,12659.499023,E,0.000000
$GPRMC,080232.000,A,3737.392090,N,12659.499023,E,0.000000
$GPRMC,080236.000,A,3737.392090,N,12659.499023,E,0.000000
$GPRMC,080238.000,A,3737.392090,N,12659.499023,E,0.000000
$GPRMC,080240.000,A,3737.392090,N,12659.499023,E,0.000000
$GPRMC,080241.000,A,3737.392090,N,12659.499023,E,0.000000
$GPRMC,080243.000,A,3737.392090,N,12659.499023,E,0.000000
$GPRMC,080244.000,A,3737.392090,N,12659.499023,E,0.000000
$GPRMC,080245.000,A,3737.392090,N,12659.499023,E,0.000000
$GPRMC,080247.000,A,3737.392090,N,12659.499023,E,0.000000
$GPRMC,080248.000,A,3737.392090,N,12659.499023,E,0.000000
$GPRMC,080249.000,A,3737.392090,N,12659.499023,E,0.000000
$GPRMC,080251.000,A,3737.392090,N,12659.499023,E,0.000000
$GPRMC,080252.000,A,3737.392090,N,12659.499023,E,0.000000
$GPRMC,080254.000,A,3737.392090,N,12659.499023,E,0.000000
$GPRMC,080256.000,A,3737.392090,N,12659.499023,E,0.000000
$GPRMC,080258.000,A,3737.392090,N,12659.499023,E,0.000000
$GPRMC,080259.000,A,3737.392090,N,12659.499023,E,0.000000
$GPRMC,080300.000,A,3737.392090,N,12659.499023,E,0.000000
$GPRMC,080302.000,A,3737.392090,N,12659.499023,E,0.000000
$GPRMC,080303.000,A,3737.392090,N,12659.499023,E,0.000000
$GPRMC,080304.000,A,3737.392090,N,12659.499023,E,0.000000
$GPRMC,080306.000,A,3737.392090,N,12659.499023,E,0.000000
$GPRMC,080307.000,A,3737.392090,N,12659.499023,E,0.000000
$GPRMC,080310.000,A,3737.392090,N,12659.499023,E,0.000000
$GPRMC,080312.000,A,3737.392090,N,12659.499023,E,0.000000
$GPRMC,080313.000,A,3737.392090,N,12659.499023,E,0.000000
$GPRMC,080314.000,A,3737.392090,N,12659.499023,E,0.000000
$GPRMC,080316.000,A,3737.392090,N,12659.499023,E,0.000000
$GPRMC,080317.000,A,3737.392090,N,12659.499023,E,0.000000
$GPRMC,080320.000,A,3737.392090,N,12659.499023,E,0.000000
$GPRMC,080321.000,A,3737.392090,N,12659.499023,E,0.000000
$GPRMC,080323.000,A,3737.392090,N,12659.499023,E,0.000000
$GPRMC,080324.000,A,3737.392090,N,12659.499023,E,0.000000
$GPRMC,080325.000,A,3737.392090,N,12659.499023,E,0.000000
$GPRMC,080327.000,A,3737.392090,N,12659.499023,E,0.000000
$GPRMC,080330.000,A,3737.392090,N,12659.499023,E,0.000000
$GPRMC,080331.000,A,3737.392090,N,12659.499023,E,0.000000
$GPRMC,080333.000,A,3737.392090,N,12659.499023,E,0.000000
$GPRMC,080334.000,A,3737.392090,N,12659.499023,E,0.000000
$GPRMC,080335.000,A,3737.392090,N,12659.499023,E,0.000000
$GPRMC,080337.000,A,3737.392090,N,12659.499023,E,0.000000
$GPRMC,080338.000,A,3737.392090,N,12659.499023,E,0.000000
$GPRMC,080339.000,A,3737.392090,N,12659.499023,E,0.000000
$GPRMC,080341.000,A,3737.392090,N,12659.499023,E,0.000000
$GPRMC,080343.000,A,3737.392090,N,12659.499023,E,0.000000
$GPRMC,080344.000,A,3737.392090,N,12659.499023,E,0.000000
$GPRMC,080345.000,A,3737.392090,N,12659.499023,E,0.000000
$GPRMC,080347.000,A,3737.392090,N,12659.499023,E,0.000000
$GPRMC,080348.000,A,3737.392090,N,12659.499023,E,0.000000
$GPRMC,080349.000,A,3737.392090,N,12659.499023,E,0.000000
$GPRMC,080350.000,A,3737.392090,N,12659.499023,E,0.000000
$GPRMC,080352.000,A,3737.392090,N,12659.499023,E,0.000000
$GPRMC,080354.000,A,3737.392090,N,12659.499023,E,0.000000
$GPRMC,080356.000,A,3737.392090,N,12659.499023,E,0.000000
$GPRMC,080357.000,A,3737.392090,N,12659.499023,E,0.000000
$GPRMC,080400.000,A,3737.392090,N,12659.499023,E,0.000000
$GPRMC,080402.000,A,3737.392090,N,12659.499023,E,0.000000
$GPRMC,080403.000,A,3737.392090,N,12659.499023,E,0.000000
$GPRMC,080404.000,A,3737.392090,N,12659.499023,E,0.000000
$GPRMC,080406.000,A,3737.392090,N,12659.499023,E,0.000000
$GPRMC,080407.000,A,3737.392090,N,12659.499023,E,0.000000
$GPRMC,080411.000,A,3737.392090,N,12659.499023,E,0.000000
$GPRMC,080413.000,A,3737.392090,N,12659.499023,E,0.000000
$GPRMC,080414.000,A,3737.392090,N,12659.499023,E,0.000000
$GPRMC,080415.000,A,3737.392090,N,12659.499023,E,0.000000
$GPRMC,080417.000,A,3737.392090,N,12659.499023,E,0.000000
$GPRMC,080418.000,A,3737.392090,N,12659.499023,E,0.000000
$GPRMC,080419.000,A,3737.392090,N,12659.499023,E,0.000000
$GPRMC,080421.000,A,3737.392090,N,12659.499023,E,0.000000
$GPRMC,080422.000,A,3737.392090,N,12659.499023,E,0.000000
$GPRMC,080425.000,A,3737.392090,N,12659.499023,E,0.000000
$GPRMC,080426.000,A,3737.392090,N,12659.499023,E,0.000000
$GPRMC,080428.000,A,3737.392090,N,12659.499023,E,0.000000
$GPRMC,080429.000,A,3737.392090,N,12659.499023,E,0.000000
$GPRMC,080430.000,A,3737.392090,N,12659.499023,E,0.000000
$GPRMC,080432.000,A,3737.392090,N,12659.499023,E,0.000000
$GPRMC,080435.000,A,3737.392090,N,12659.499023,E,0.000000
$GPRMC,080436.000,A,3737.392090,N,12659.499023,E,0.000000
$GPRMC,080438.000,A,3737.392090,N,12659.499023,E,0.000000
$GPRMC,080439.000,A,3737.392090,N,12659.499023,E,0.000000
$GPRMC,080441.000,A,3737.392090,N,12659.499023,E,0.000000
$GPRMC,080442.000,A,3737.392090,N,12659.499023,E,0.000000
$GPRMC,080444.000,A,3737.392090,N,12659.499023,E,0.000000
$GPRMC,080445.000,A,3737.392090,N,12659.499023,E,0.000000
$GPRMC,080447.000,A,3737.392090,N,12659.499023,E,0.000000
$GPRMC,080448.000,A,3737.392090,N,12659.499023,E,0.000000
$GPRMC,080450.000,A,3737.392090,N,12659.499023,E,0.000000
$GPRMC,080451.000,A,3737.392090,N,12659.499023,E,0.000000
$GPRMC,080453.000,A,3737.392090,N,12659.499023,E,0.000000
$GPRMC,080454.000,A,3737.392090,N,12659.499023,E,0.000000
$GPRMC,080456.000,A,3737.392090,N,12659.499023,E,0.000000
$GPRMC,080457.000,A,3737.392090,N,12659.499023,E,0.000000
$GPRMC,080459.000,A,3737.392090,N,12659.499023,E,0.000000
$GPRMC,080500.000,A,3737.392090,N,12659.499023,E,0.000000
$GPRMC,080502.000,A,3737.392090,N,12659.499023,E,0.000000
$GPRMC,080503.000,A,3737.392090,N,12659.499023,E,0.000000
$GPRMC,080505.000,A,3737.392090,N,12659.499023,E,0.000000
$GPRMC,080506.000,A,3737.392090,N,12659.499023,E,0.000000
$GPRMC,080508.000,A,3737.392090,N,12659.499023,E,0.000000
$GPRMC,080509.000,A,3737.392090,N,12659.499023,E,0.000000
$GPRMC,080511.000,A,3737.392090,N,12659.499023,E,0.000000
$GPRMC,080512.000,A,3737.392090,N,12659.499023,E,0.000000
$GPRMC,080514.000,A,3737.392090,N,12659.499023,E,0.000000
$GPRMC,080515.000,A,3737.392090,N,12659.499023,E,0.000000
$GPRMC,080517.000,A,3737.392090,N,12659.499023,E,0.000000
$GPRMC,080518.000,A,3737.392090,N,12659.499023,E,0.000000
$GPRMC,080520.000,A,3737.392090,N,12659.499023,E,0.000000
$GPRMC,080521.000,A,3737.392090,N,12659.499023,E,0.000000
$GPRMC,080523.000,A,3737.392090,N,12659.499023,E,0.000000
$GPRMC,080524.000,A,3737.392090,N,12659.499023,E,0.000000
$GPRMC,080526.000,A,3737.392090,N,12659.499023,E,0.000000
$GPRMC,080527.000,A,3737.392090,N,12659.499023,E,0.000000
$GPRMC,080529.000,A,3737.392090,N,12659.499023,E,0.000000
$GPRMC,080530.000,A,3737.392090,N,12659.499023,E,0.000000
$GPRMC,080532.000,A,3737.392090,N,12659.499023,E,0.000000
$GPRMC,080535.000,A,3737.392090,N,12659.499023,E,0.000000
$GPRMC,080536.000,A,3737.392090,N,12659.499023,E,0.000000
$GPRMC,080538.000,A,3737.392090,N,12659.499023,E,0.000000
$GPRMC,080539.000,A,3737.392090,N,12659.499023,E,0.000000
$GPRMC,080541.000,A,3737.392090,N,12659.499023,E,0.000000
$GPRMC,080543.000,A,3737.392090,N,12659.499023,E,0.000000
$GPRMC,080544.000,A,3737.392090,N,12659.499023,E,0.000000
$GPRMC,080545.000,A,3737.392090,N,12659.499023,E,0.000000
$GPRMC,080547.000,A,3737.392090,N,12659.499023,E,0.000000
$GPRMC,080550.000,A,3737.392090,N,12659.499023,E,0.000000
$GPRMC,080552.000,A,3737.392090,N,12659.499023,E,0.000000
$GPRMC,080553.000,A,3737.392090,N,12659.499023,E,0.000000
$GPRMC,080556.000,A,3737.392090,N,12659.499023,E,0.000000
$GPRMC,080558.000,A,3737.392090,N,12659.499023,E,0.000000
$GPRMC,080559.000,A,3737.392090,N,12659.499023,E,0.000000
$GPRMC,080601.000,A,3737.392090,N,12659.499023,E,0.000000
$GPRMC,080602.000,A,3737.392090,N,12659.499023,E,0.000000
$GPRMC,080604.000,A,3737.392090,N,12659.499023,E,0.000000
$GPRMC,080605.000,A,3737.392090,N,12659.499023,E,0.000000
$GPRMC,080607.000,A,3737.392090,N,12659.499023,E,0.000000
$GPRMC,080608.000,A,3737.392090,N,12659.499023,E,0.000000
$GPRMC,080610.000,A,3737.392090,N,12659.499023,E,0.000000
$GPRMC,080611.000,A,3737.392090,N,12659.499023,E,0.000000
$GPRMC,080613.000,A,3737.392090,N,12659.499023,E,0.000000
$GPRMC,080614.000,A,3737.392090,N,12659.499023,E,0.000000
$GPRMC,080616.000,A,3737.392090,N,12659.499023,E,0.000000
$GPRMC,080617.000,A,3737.392090,N,12659.499023,E,0.000000
$GPRMC,080619.000,A,3737.392090,N,12659.499023,E,0.000000
$GPRMC,080620.000,A,3737.392090,N,12659.499023,E,0.000000
$GPRMC,080622.000,A,3737.392090,N,12659.499023,E,0.000000
$GPRMC,080623.000,A,3737.392090,N,12659.499023,E,0.000000
$GPRMC,080625.000,A,3737.392090,N,12659.499023,E,0.000000
$GPRMC,080626.000,A,3737.392090,N,12659.499023,E,0.000000
$GPRMC,080628.000,A,3737.392090,N,12659.499023,E,0.000000
$GPRMC,080629.000,A,3737.392090,N,12659.499023,E,0.000000
$GPRMC,080631.000,A,3737.392090,N,12659.499023,E,0.000000
$GPRMC,080632.000,A,3737.392090,N,12659.499023,E,0.000000
$GPRMC,080634.000,A,3737.392090,N,12659.499023,E,0.000000
$GPRMC,080635.000,A,3737.392090,N,12659.499023,E,0.000000
$GPRMC,080637.000,A,3737.392090,N,12659.499023,E,0.000000
$GPRMC,080638.000,A,3737.392090,N,12659.499023,E,0.000000
$GPRMC,080640.000,A,3737.392090,N,12659.499023,E,0.000000
$GPRMC,080641.000,A,3737.392090,N,12659.499023,E,0.000000
$GPRMC,080643.000,A,3737.392090,N,12659.499023,E,0.000000
$GPRMC,080644.000,A,3737.392090,N,12659.499023,E,0.000000
$GPRMC,080645.000,A,3737.392090,N,12659.499023,E,0.000000
$GPRMC,080647.000,A,3737.392090,N,12659.499023,E,0.000000
$GPRMC,080650.000,A,3737.392090,N,12659.499023,E,0.000000
$GPRMC,080652.000,A,3737.392090,N,12659.499023,E,0.000000
$GPRMC,080653.000,A,3737.392090,N,12659.499023,E,0.000000
$GPRMC,080656.000,A,3737.392090,N,12659.499023,E,0.000000
$GPRMC,080658.000,A,3737.392090,N,12659.499023,E,0.000000
$GPRMC,080659.000,A,3737.392090,N,12659.499023,E,0.000000
$GPRMC,080701.000,A,3737.392090,N,12659.499023,E,0.000000
$GPRMC,080702.000,A,3737.392090,N,12659.499023,E,0.000000
$GPRMC,080704.000,A,3737.392090,N,12659.499023,E,0.000000
$GPRMC,080705.000,A,3737.392090,N,12659.499023,E,0.000000
$GPRMC,080707.000,A,3737.392090,N,12659.499023,E,0.000000
$GPRMC,080708.000,A,3737.392090,N,12659.499023,E,0.000000
$GPRMC,080710.000,A,3737.392090,N,12659.499023,E,0.000000
$GPRMC,080711.000,A,3737.392090,N,12659.499023,E,0.000000
$GPRMC,080713.000,A,3737.392090,N,12659.499023,E,0.000000
$GPRMC,080714.000,A,3737.392090,N,12659.499023,E,0.000000
$GPRMC,080716.000,A,3737.392090,N,12659.499023,E,0.000000
$GPRMC,080717.000,A,3737.392090,N,12659.499023,E,0.000000
$GPRMC,080719.000,A,3737.392090,N,12659.499023,E,0.000000
$GPRMC,080720.000,A,3737.392090,N,12659.499023,E,0.000000
$GPRMC,080722.000,A,3737.392090,N,12659.499023,E,0.000000
$GPRMC,080723.000,A,3737.392090,N,12659.499023,E,0.000000
$GPRMC,080725.000,A,3737.392090,N,12659.499023,E,0.000000
$GPRMC,080726.000,A,3737.392090,N,12659.499023,E,0.000000
$GPRMC,080728.000,A,3737.392090,N,12659.499023,E,0.000000
$GPRMC,080729.000,A,3737.392090,N,12659.499023,E,0.000000
$GPRMC,080731.000,A,3737.392090,N,12659.499023,E,0.000000
$GPRMC,080732.000,A,3737.392090,N,12659.499023,E,0.000000
$GPRMC,080734.000,A,3737.392090,N,12659.499023,E,0.000000
$GPRMC,080735.000,A,3737.392090,N,12659.499023,E,0.000000
$GPRMC,080737.000,A,3737.392090,N,12659.499023,E,0.000000
$GPRMC,080738.000,A,3737.392090,N,12659.499023,E,0.000000
$GPRMC,080740.000,A,3737.392090,N,12659.499023,E,0.000000
$GPRMC,080741.000,A,3737.392090,N,12659.499023,E,0.000000
$GPRMC,080743.000,A,3737.392090,N,12659.499023,E,0.000000
$GPRMC,080744.000,A,3737.392090,N,12659.499023,E,0.000000
$GPRMC,080746.000,A,3737.392090,N,12659.499023,E,0.000000
$GPRMC,080747.000,A,3737.392090,N,12659.499023,E,0.000000
$GPRMC,080749.000,A,3737.392090,N,12659.499023,E,0.000000
$GPRMC,080750.000,A,3737.392090,N,12659.499023,E,0.000000
$GPRMC,080752.000,A,3737.392090,N,12659.499023,E,0.000000
$GPRMC,080755.000,A,3737.392090,N,12659.499023,E,0.000000
$GPRMC,080756.000,A,3737.392090,N,12659.499023,E,0.000000
$GPRMC,080758.000,A,3737.392090,N,12659.499023,E,0.000000
$GPRMC,080759.000,A,3737.392090,N,12659.499023,E,0.000000
$GPRMC,080801.000,A,3737.392090,N,12659.499023,E,0.000000
$GPRMC,080803.000,A,3737.392090,N,12659.499023,E,0.000000
$GPRMC,080804.000,A,3737.392090,N,12659.499023,E,0.000000
$GPRMC,080805.000,A,3737.392090,N,12659.499023,E,0.000000
$GPRMC,080807.000,A,3737.392090,N,12659.499023,E,0.000000
$GPRMC,080810.000,A,3737.392090,N,12659.499023,E,0.000000
$GPRMC,080812.000,A,3737.392090,N,12659.499023,E,0.000000
$GPRMC,080813.000,A,3737.392090,N,12659.499023,E,0.000000
$GPRMC,080816.000,A,3737.392090,N,12659.499023,E,0.000000
$GPRMC,080818.000,A,3737.392090,N,12659.499023,E,0.000000
$GPRMC,080819.000,A,3737.392090,N,12659.499023,E,0.000000
$GPRMC,080821.000,A,3737.392090,N,12659.499023,E,0.000000
$GPRMC,080822.000,A,3737.392090,N,12659.499023,E,0.000000
$GPRMC,080824.000,A,3737.392090,N,12659.499023,E,0.000000
$GPRMC,080825.000,A,3737.392090,N,12659.499023,E,0.000000
$GPRMC,080827.000,A,3737.392090,N,12659.499023,E,0.000000
$GPRMC,080828.000,A,3737.392090,N,12659.499023,E,0.000000
$GPRMC,080830.000,A,3737.392090,N,12659.499023,E,0.000000
$GPRMC,080831.000,A,3737.392090,N,12659.499023,E,0.000000
$GPRMC,080833.000,A,3737.392090,N,12659.499023,E,0.000000
$GPRMC,080834.000,A,3737.392090,N,12659.499023,E,0.000000
$GPRMC,080836.000,A,3737.392090,N,12659.499023,E,0.000000
$GPRMC,080837.000,A,3737.392090,N,12659.499023,E,0.000000
$GPRMC,080839.000,A,3737.392090,N,12659.499023,E,0.000000
$GPRMC,080840.000,A,3737.392090,N,12659.499023,E,0.000000
$GPRMC,080842.000,A,3737.392090,N,12659.499023,E,0.000000
$GPRMC,080843.000,A,3737.392090,N,12659.499023,E,0.000000
$GPRMC,080845.000,A,3737.392090,N,12659.499023,E,0.000000
$GPRMC,080846.000,A,3737.392090,N,12659.499023,E,0.000000
$GPRMC,080848.000,A,3737.392090,N,12659.499023,E,0.000000
$GPRMC,080849.000,A,3737.392090,N,12659.499023,E,0.000000
$GPRMC,080851.000,A,3737.392090,N,12659.499023,E,0.000000
$GPRMC,080852.000,A,3737.392090,N,12659.499023,E,0.000000
$GPRMC,080854.000,A,3737.392090,N,12659.499023,E,0.000000
$GPRMC,080855.000,A,3737.392090,N,12659.499023,E,0.000000
$GPRMC,080857.000,A,3737.392090,N,12659.499023,E,0.000000
$GPRMC,080858.000,A,3737.392090,N,12659.499023,E,0.000000
$GPRMC,080900.000,A,3737.392090,N,12659.499023,E,0.000000
$GPRMC,080901.000,A,3737.392090,N,12659.499023,E,0.000000
$GPRMC,080903.000,A,3737.392090,N,12659.499023,E,0.000000
$GPRMC,080904.000,A,3737.392090,N,12659.499023,E,0.000000
$GPRMC,080906.000,A,3737.392090,N,12659.499023,E,0.000000
$GPRMC,080907.000,A,3737.392090,N,12659.499023,E,0.000000
$GPRMC,080909.000,A,3737.392090,N,12659.499023,E,0.000000
$GPRMC,080910.000,A,3737.392090,N,12659.499023,E,0.000000
$GPRMC,080912.000,A,3737.392090,N,12659.499023,E,0.000000
$GPRMC,080915.000,A,3737.392090,N,12659.499023,E,0.000000
$GPRMC,080916.000,A,3737.392090,N,12659.499023,E,0.000000
$GPRMC,080918.000,A,3737.392090,N,12659.499023,E,0.000000
$GPRMC,080919.000,A,3737.392090,N,12659.499023,E,0.000000
$GPRMC,080920.000,A,3737.392090,N,12659.499023,E,0.000000
$GPRMC,080922.000,A,3737.392090,N,12659.499023,E,0.000000
$GPRMC,080923.000,A,3737.392090,N,12659.499023,E,0.000000
$GPRMC,080925.000,A,3737.392090,N,12659.499023,E,0.000000
$GPRMC,080926.000,A,3737.392090,N,12659.499023,E,0.000000
$GPRMC,080928.000,A,3737.392090,N,12659.499023,E,0.000000
$GPRMC,080929.000,A,3737.392090,N,12659.499023,E,0.000000
$GPRMC,080931.000,A,3737.392090,N,12659.499023,E,0.000000
$GPRMC,080932.000,A,3737.392090,N,12659.499023,E,0.000000
$GPRMC,080935.000,A,3737.392090,N,12659.499023,E,0.000000
$GPRMC,080936.000,A,3737.392090,N,12659.499023,E,0.000000
$GPRMC,080938.000,A,3737.392090,N,12659.499023,E,0.000000
$GPRMC,080939.000,A,3737.392090,N,12659.499023,E,0.000000
$GPRMC,080940.000,A,3737.392090,N,12659.499023,E,0.000000
$GPRMC,080942.000,A,3737.392090,N,12659.499023,E,0.000000
$GPRMC,080943.000,A,3737.392090,N,12659.499023,E,0.000000
$GPRMC,080945.000,A,3737.392090,N,12659.499023,E,0.000000
$GPRMC,080946.000,A,3737.392090,N,12659.499023,E,0.000000
$GPRMC,080948.000,A,3737.392090,N,12659.499023,E,0.000000
$GPRMC,080949.000,A,3737.392090,N,12659.499023,E,0.000000
$GPRMC,080951.000,A,3737.392090,N,12659.499023,E,0.000000
$GPRMC,080952.000,A,3737.392090,N,12659.499023,E,0.000000
$GPRMC,080955.000,A,3737.392090,N,12659.499023,E,0.000000
$GPRMC,080956.000,A,3737.392090,N,12659.499023,E,0.000000
$GPRMC,080958.000,A,3737.392090,N,12659.499023,E,0.000000
$GPRMC,080959.000,A,3737.392090,N,12659.499023,E,0.000000
$GPRMC,081000.000,A,3737.392090,N,12659.499023,E,0.000000
$GPRMC,081002.000,A,3737.392090,N,12659.499023,E,0.000000
$GPRMC,081003.000,A,3737.392090,N,12659.499023,E,0.000000
$GPRMC,081005.000,A,3737.392090,N,12659.499023,E,0.000000
$GPRMC,081006.000,A,3737.392090,N,12659.499023,E,0.000000
$GPRMC,081008.000,A,3737.392090,N,12659.499023,E,0.000000
$GPRMC,081009.000,A,3737.392090,N,12659.499023,E,0.000000
$GPRMC,081011.000,A,3737.392090,N,12659.499023,E,0.000000
$GPRMC,081012.000,A,3737.392090,N,12659.499023,E,0.000000
$GPRMC,081015.000,A,3737.392090,N,12659.499023,E,0.000000
$GPRMC,081016.000,A,3737.392090,N,12659.499023,E,0.000000
$GPRMC,081018.000,A,3737.392090,N,12659.499023,E,0.000000
$GPRMC,081019.000,A,3737.392090,N,12659.499023,E,0.000000
$GPRMC,081020.000,A,3737.392090,N,12659.499023,E,0.000000
$GPRMC,081022.000,A,3737.392090,N,12659.499023,E,0.000000
$GPRMC,081025.000,A,3737.392090,N,12659.499023,E,0.000000
$GPRMC,081026.000,A,3737.392090,N,12659.499023,E,0.000000
$GPRMC,081028.000,A,3737.392090,N,12659.499023,E,0.000000
$GPRMC,081029.000,A,3737.392090,N,12659.499023,E,0.000000
$GPRMC,081031.000,A,3737.392090,N,12659.499023,E,0.000000
$GPRMC,081033.000,A,3737.392090,N,12659.499023,E,0.000000
$GPRMC,081034.000,A,3737.392090,N,12659.499023,E,0.000000
$GPRMC,081035.000,A,3737.392090,N,12659.499023,E,0.000000
$GPRMC,081037.000,A,3737.392090,N,12659.499023,E,0.000000
$GPRMC,081040.000,A,3737.392090,N,12659.499023,E,0.000000
$GPRMC,081042.000,A,3737.392090,N,12659.499023,E,0.000000
$GPRMC,081043.000,A,3737.392090,N,12659.499023,E,0.000000
$GPRMC,081046.000,A,3737.392090,N,12659.499023,E,0.000000
$GPRMC,081048.000,A,3737.392090,N,12659.499023,E,0.000000
$GPRMC,081049.000,A,3737.392090,N,12659.499023,E,0.000000
$GPRMC,081051.000,A,3737.392090,N,12659.499023,E,0.000000
$GPRMC,081052.000,A,3737.392090,N,12659.499023,E,0.000000
$GPRMC,081054.000,A,3737.392090,N,12659.499023,E,0.000000
$GPRMC,081055.000,A,3737.392090,N,12659.499023,E,0.000000
$GPRMC,081057.000,A,3737.392090,N,12659.499023,E,0.000000
$GPRMC,081058.000,A,3737.392090,N,12659.499023,E,0.000000
$GPRMC,081100.000,A,3737.392090,N,12659.499023,E,0.000000
$GPRMC,081101.000,A,3737.392090,N,12659.499023,E,0.000000
$GPRMC,081103.000,A,3737.392090,N,12659.499023,E,0.000000
$GPRMC,081104.000,A,3737.392090,N,12659.499023,E,0.000000
$GPRMC,081106.000,A,3737.392090,N,12659.499023,E,0.000000
$GPRMC,081107.000,A,3737.392090,N,12659.499023,E,0.000000
$GPRMC,081109.000,A,3737.392090,N,12659.499023,E,0.000000
$GPRMC,081110.000,A,3737.392090,N,12659.499023,E,0.000000
$GPRMC,081112.000,A,3737.392090,N,12659.499023,E,0.000000
$GPRMC,081113.000,A,3737.392090,N,12659.499023,E,0.000000
$GPRMC,081115.000,A,3737.392090,N,12659.499023,E,0.000000
$GPRMC,081116.000,A,3737.392090,N,12659.499023,E,0.000000
$GPRMC,081118.000,A,3737.392090,N,12659.499023,E,0.000000
$GPRMC,081119.000,A,3737.392090,N,12659.499023,E,0.000000
$GPRMC,081121.000,A,3737.392090,N,12659.499023,E,0.000000
$GPRMC,081122.000,A,3737.392090,N,12659.499023,E,0.000000
$GPRMC,081124.000,A,3737.392090,N,12659.499023,E,0.000000
$GPRMC,081125.000,A,3737.392090,N,12659.499023,E,0.000000
$GPRMC,081127.000,A,3737.392090,N,12659.499023,E,0.000000
$GPRMC,081128.000,A,3737.392090,N,12659.499023,E,0.000000
$GPRMC,081130.000,A,3737.392090,N,12659.499023,E,0.000000
$GPRMC,081131.000,A,3737.392090,N,12659.499023,E,0.000000
$GPRMC,081133.000,A,3737.392090,N,12659.499023,E,0.000000
$GPRMC,081134.000,A,3737.392090,N,12659.499023,E,0.000000
$GPRMC,081136.000,A,3737.392090,N,12659.499023,E,0.000000
$GPRMC,081137.000,A,3737.392090,N,12659.499023,E,0.000000
$GPRMC,081139.000,A,3737.392090,N,12659.499023,E,0.000000
$GPRMC,081140.000,A,3737.392090,N,12659.499023,E,0.000000
$GPRMC,081142.000,A,3737.392090,N,12659.499023,E,0.000000
$GPRMC,081145.000,A,3737.392090,N,12659.499023,E,0.000000
$GPRMC,081146.000,A,3737.392090,N,12659.499023,E,0.000000
$GPRMC,081148.000,A,3737.392090,N,12659.499023,E,0.000000
$GPRMC,081149.000,A,3737.392090,N,12659.499023,E,0.000000
$GPRMC,081151.000,A,3737.392090,N,12659.499023,E,0.000000
$GPRMC,081153.000,A,3737.392090,N,12659.499023,E,0.000000
$GPRMC,081154.000,A,3737.392090,N,12659.499023,E,0.000000
$GPRMC,081155.000,A,3737.392090,N,12659.499023,E,0.000000
$GPRMC,081157.000,A,3737.392090,N,12659.499023,E,0.000000
$GPRMC,081200.000,A,3737.392090,N,12659.499023,E,0.000000
$GPRMC,081202.000,A,3737.392090,N,12659.499023,E,0.000000
$GPRMC,081203.000,A,3737.392090,N,12659.499023,E,0.000000
$GPRMC,081206.000,A,3737.392090,N,12659.499023,E,0.000000
$GPRMC,081208.000,A,3737.392090,N,12659.499023,E,0.000000
$GPRMC,081209.000,A,3737.392090,N,12659.499023,E,0.000000
$GPRMC,081211.000,A,3737.392090,N,12659.499023,E,0.000000
$GPRMC,081212.000,A,3737.392090,N,12659.499023,E,0.000000
$GPRMC,081215.000,A,3737.392090,N,12659.499023,E,0.000000
$GPRMC,081217.000,A,3737.392090,N,12659.499023,E,0.000000
$GPRMC,081218.000,A,3737.392090,N,12659.499023,E,0.000000
$GPRMC,081221.000,A,3737.392090,N,12659.499023,E,0.000000
$GPRMC,081223.000,A,3737.392090,N,12659.499023,E,0.000000
$GPRMC,081224.000,A,3737.392090,N,12659.499023,E,0.000000
$GPRMC,081226.000,A,3737.392090,N,12659.499023,E,0.000000
$GPRMC,081227.000,A,3737.392090,N,12659.499023,E,0.000000
$GPRMC,081230.000,A,3737.392090,N,12659.499023,E,0.000000
$GPRMC,081232.000,A,3737.392090,N,12659.499023,E,0.000000
$GPRMC,081233.000,A,3737.392090,N,12659.499023,E,0.000000
$GPRMC,081234.000,A,3737.392090,N,12659.499023,E,0.000000
$GPRMC,081236.000,A,3737.392090,N,12659.499023,E,0.000000
$GPRMC,081238.000,A,3737.392090,N,12659.499023,E,0.000000
$GPRMC,081239.000,A,3737.392090,N,12659.499023,E,0.000000
$GPRMC,081240.000,A,3737.392090,N,12659.499023,E,0.000000
$GPRMC,081242.000,A,3737.392090,N,12659.499023,E,0.000000
$GPRMC,081245.000,A,3737.392090,N,12659.499023,E,0.000000
$GPRMC,081246.000,A,3737.392090,N,12659.499023,E,0.000000
$GPRMC,081248.000,A,3737.392090,N,12659.499023,E,0.000000
$GPRMC,081249.000,A,3737.392090,N,12659.499023,E,0.000000
$GPRMC,081251.000,A,3737.392090,N,12659.499023,E,0.000000
$GPRMC,081252.000,A,3737.392090,N,12659.499023,E,0.000000
$GPRMC,081254.000,A,3737.392090,N,12659.499023,E,0.000000
$GPRMC,081255.000,A,3737.392090,N,12659.499023,E,0.000000
$GPRMC,081257.000,A,3737.392090,N,12659.499023,E,0.000000
$GPRMC,081258.000,A,3737.392090,N,12659.499023,E,0.000000
$GPRMC,081301.000,A,3737.392090,N,12659.499023,E,0.000000
$GPRMC,081303.000,A,3737.392090,N,12659.499023,E,0.000000
$GPRMC,081304.000,A,3737.392090,N,12659.499023,E,0.000000
$GPRMC,081306.000,A,3737.392090,N,12659.499023,E,0.000000
$GPRMC,081307.000,A,3737.392090,N,12659.499023,E,0.000000
$GPRMC,081309.000,A,3737.392090,N,12659.499023,E,0.000000
$GPRMC,081310.000,A,3737.392090,N,12659.499023,E,0.000000
$GPRMC,081312.000,A,3737.392090,N,12659.499023,E,0.000000
$GPRMC,081313.000,A,3737.392090,N,12659.499023,E,0.000000
$GPRMC,081315.000,A,3737.392090,N,12659.499023,E,0.000000
$GPRMC,081316.000,A,3737.392090,N,12659.499023,E,0.000000
$GPRMC,081318.000,A,3737.392090,N,12659.499023,E,0.000000
$GPRMC,081319.000,A,3737.392090,N,12659.499023,E,0.000000
$GPRMC,081321.000,A,3737.392090,N,12659.499023,E,0.000000
$GPRMC,081322.000,A,3737.392090,N,12659.499023,E,0.000000
$GPRMC,081325.000,A,3737.392090,N,12659.499023,E,0.000000
$GPRMC,081327.000,A,3737.392090,N,12659.499023,E,0.000000
$GPRMC,081328.000,A,3737.392090,N,12659.499023,E,0.000000
$GPRMC,081329.000,A,3737.392090,N,12659.499023,E,0.000000
$GPRMC,081331.000,A,3737.392090,N,12659.499023,E,0.000000
$GPRMC,081333.000,A,3737.392090,N,12659.499023,E,0.000000
$GPRMC,081334.000,A,3737.392090,N,12659.499023,E,0.000000
$GPRMC,081335.000,A,3737.392090,N,12659.499023,E,0.000000
$GPRMC,081337.000,A,3737.392090,N,12659.499023,E,0.000000
$GPRMC,081340.000,A,3737.392090,N,12659.499023,E,0.000000
$GPRMC,081341.000,A,3737.392090,N,12659.499023,E,0.000000
$GPRMC,081343.000,A,3737.392090,N,12659.499023,E,0.000000
$GPRMC,081344.000,A,3737.392090,N,12659.499023,E,0.000000
$GPRMC,081346.000,A,3737.392090,N,12659.499023,E,0.000000
$GPRMC,081347.000,A,3737.392090,N,12659.499023,E,0.000000
$GPRMC,081349.000,A,3737.392090,N,12659.499023,E,0.000000
$GPRMC,081350.000,A,3737.392090,N,12659.499023,E,0.000000
$GPRMC,081352.000,A,3737.392090,N,12659.499023,E,0.000000
$GPRMC,081353.000,A,3737.392090,N,12659.499023,E,0.000000
$GPRMC,081355.000,A,3737.392090,N,12659.499023,E,0.000000
$GPRMC,081356.000,A,3737.392090,N,12659.499023,E,0.000000
$GPRMC,081358.000,A,3737.392090,N,12659.499023,E,0.000000
$GPRMC,081359.000,A,3737.392090,N,12659.499023,E,0.000000
$GPRMC,081401.000,A,3737.392090,N,12659.499023,E,0.000000
$GPRMC,081402.000,A,3737.392090,N,12659.499023,E,0.000000
$GPRMC,081405.000,A,3737.392090,N,12659.499023,E,0.000000
$GPRMC,081407.000,A,3737.392090,N,12659.499023,E,0.000000
$GPRMC,081408.000,A,3737.392090,N,12659.499023,E,0.000000
$GPRMC,081409.000,A,3737.392090,N,12659.499023,E,0.000000
$GPRMC,081411.000,A,3737.392090,N,12659.499023,E,0.000000
$GPRMC,081413.000,A,3737.392090,N,12659.499023,E,0.000000
$GPRMC,081414.000,A,3737.392090,N,12659.499023,E,0.000000
$GPRMC,081415.000,A,3737.392090,N,12659.499023,E,0.000000
$GPRMC,081417.000,A,3737.392090,N,12659.499023,E,0.000000
$GPRMC,081420.000,A,3737.392090,N,12659.499023,E,0.000000
$GPRMC,081421.000,A,3737.392090,N,12659.499023,E,0.000000
$GPRMC,081423.000,A,3737.392090,N,12659.499023,E,0.000000
$GPRMC,081424.000,A,3737.392090,N,12659.499023,E,0.000000
$GPRMC,081426.000,A,3737.392090,N,12659.499023,E,0.000000
$GPRMC,081427.000,A,3737.392090,N,12659.499023,E,0.000000
$GPRMC,081429.000,A,3737.392090,N,12659.499023,E,0.000000
$GPRMC,081430.000,A,3737.392090,N,12659.499023,E,0.000000
$GPRMC,081432.000,A,3737.392090,N,12659.499023,E,0.000000
$GPRMC,081433.000,A,3737.392090,N,12659.499023,E,0.000000
$GPRMC,081435.000,A,3737.392090,N,12659.499023,E,0.000000
$GPRMC,081436.000,A,3737.392090,N,12659.499023,E,0.000000
$GPRMC,081438.000,A,3737.392090,N,12659.499023,E,0.000000
$GPRMC,081439.000,A,3737.392090,N,12659.499023,E,0.000000
$GPRMC,081441.000,A,3737.392090,N,12659.499023,E,0.000000
$GPRMC,081442.000,A,3737.392090,N,12659.499023,E,0.000000
$GPRMC,081445.000,A,3737.392090,N,12659.499023,E,0.000000
$GPRMC,081447.000,A,3737.392090,N,12659.499023,E,0.000000
$GPRMC,081448.000,A,3737.392090,N,12659.499023,E,0.000000
$GPRMC,081449.000,A,3737.392090,N,12659.499023,E,0.000000
$GPRMC,081451.000,A,3737.392090,N,12659.499023,E,0.000000
$GPRMC,081453.000,A,3737.392090,N,12659.499023,E,0.000000
$GPRMC,081454.000,A,3737.392090,N,12659.499023,E,0.000000
$GPRMC,081455.000,A,3737.392090,N,12659.499023,E,0.000000
$GPRMC,081457.000,A,3737.392090,N,12659.499023,E,0.000000
$GPRMC,081500.000,A,3737.392090,N,12659.499023,E,0.000000
$GPRMC,081502.000,A,3737.392090,N,12659.499023,E,0.000000
$GPRMC,081503.000,A,3737.392090,N,12659.499023,E,0.000000
$GPRMC,081506.000,A,3737.392090,N,12659.499023,E,0.000000
$GPRMC,081508.000,A,3737.392090,N,12659.499023,E,0.000000
$GPRMC,081509.000,A,3737.392090,N,12659.499023,E,0.000000
$GPRMC,081511.000,A,3737.392090,N,12659.499023,E,0.000000
$GPRMC,081512.000,A,3737.392090,N,12659.499023,E,0.000000
$GPRMC,081514.000,A,3737.392090,N,12659.499023,E,0.000000
$GPRMC,081515.000,A,3737.392090,N,12659.499023,E,0.000000
$GPRMC,081517.000,A,3737.392090,N,12659.499023,E,0.000000
$GPRMC,081518.000,A,3737.392090,N,12659.499023,E,0.000000
$GPRMC,081520.000,A,3737.392090,N,12659.499023,E,0.000000
$GPRMC,081521.000,A,3737.392090,N,12659.499023,E,0.000000
$GPRMC,081523.000,A,3737.392090,N,12659.499023,E,0.000000
$GPRMC,081524.000,A,3737.392090,N,12659.499023,E,0.000000
$GPRMC,081526.000,A,3737.392090,N,12659.499023,E,0.000000
$GPRMC,081527.000,A,3737.392090,N,12659.499023,E,0.000000
$GPRMC,081529.000,A,3737.392090,N,12659.499023,E,0.000000
$GPRMC,081530.000,A,3737.392090,N,12659.499023,E,0.000000
$GPRMC,081532.000,A,3737.392090,N,12659.499023,E,0.000000
$GPRMC,081533.000,A,3737.392090,N,12659.499023,E,0.000000
$GPRMC,081535.000,A,3737.392090,N,12659.499023,E,0.000000
$GPRMC,081536.000,A,3737.392090,N,12659.499023,E,0.000000
$GPRMC,081538.000,A,3737.392090,N,12659.499023,E,0.000000
$GPRMC,081539.000,A,3737.392090,N,12659.499023,E,0.000000
$GPRMC,081541.000,A,3737.392090,N,12659.499023,E,0.000000
$GPRMC,081542.000,A,3737.392090,N,12659.499023,E,0.000000
$GPRMC,081544.000,A,3737.392090,N,12659.499023,E,0.000000
$GPRMC,081545.000,A,3737.392090,N,12659.499023,E,0.000000
$GPRMC,081547.000,A,3737.392090,N,12659.499023,E,0.000000
$GPRMC,081548.000,A,3737.392090,N,12659.499023,E,0.000000
$GPRMC,081550.000,A,3737.392090,N,12659.499023,E,0.000000
$GPRMC,081551.000,A,3737.392090,N,12659.499023,E,0.000000
$GPRMC,081553.000,A,3737.392090,N,12659.499023,E,0.000000
$GPRMC,081554.000,A,3737.392090,N,12659.499023,E,0.000000
$GPRMC,081556.000,A,3737.392090,N,12659.499023,E,0.000000
$GPRMC,081557.000,A,3737.392090,N,12659.499023,E,0.000000
$GPRMC,081559.000,A,3737.392090,N,12659.499023,E,0.000000
$GPRMC,081600.000,A,3737.392090,N,12659.499023,E,0.000000
$GPRMC,081602.000,A,3737.392090,N,12659.499023,E,0.000000
$GPRMC,081605.000,A,3737.392090,N,12659.499023,E,0.000000
$GPRMC,081606.000,A,3737.392090,N,12659.499023,E,0.000000
$GPRMC,081608.000,A,3737.392090,N,12659.499023,E,0.000000
$GPRMC,081609.000,A,3737.392090,N,12659.499023,E,0.000000
$GPRMC,081611.000,A,3737.392090,N,12659.499023,E,0.000000
$GPRMC,081613.000,A,3737.392090,N,12659.499023,E,0.000000
$GPRMC,081614.000,A,3737.392090,N,12659.499023,E,0.000000
$GPRMC,081615.000,A,3737.392090,N,12659.499023,E,0.000000
$GPRMC,081617.000,A,3737.392090,N,12659.499023,E,0.000000
$GPRMC,081620.000,A,3737.392090,N,12659.499023,E,0.000000
$GPRMC,081622.000,A,3737.392090,N,12659.499023,E,0.000000
$GPRMC,081623.000,A,3737.392090,N,12659.499023,E,0.000000
$GPRMC,081626.000,A,3737.392090,N,12659.499023,E,0.000000
$GPRMC,081628.000,A,3737.392090,N,12659.499023,E,0.000000
$GPRMC,081629.000,A,3737.392090,N,12659.499023,E,0.000000
$GPRMC,081631.000,A,3737.392090,N,12659.499023,E,0.000000
